City,Lat,Lng,Max Temp,Humidity,Cloudiness,Wind Speed,Country,Date
Upernavik,72.7868,-56.1549,26.82,97,99,4.56,GL,1620790040
Steamboat Springs,40.485,-106.8317,37.4,81,40,4.61,US,1620789941
Buturlinovka,50.8239,40.6092,46.17,77,94,11.86,RU,1620790041
Ternate,0.8,127.4,85.98,65,22,2.82,ID,1620790041
Busselton,-33.65,115.3333,63.0,70,94,4.0,AU,1620789756
Mnogovershinnyy,53.9353,139.9242,52.75,43,18,4.54,RU,1620790041
Honjō,36.2333,139.1833,68.0,48,100,1.99,JP,1620790042
Châtellerault,46.8,0.5333,46.99,93,0,6.91,FR,1620790042
Hobart,-42.8794,147.3294,57.0,67,40,10.36,AU,1620790042
Port Elizabeth,-33.918,25.5701,57.2,88,0,16.11,ZA,1620790042
Kobryn,52.2138,24.3564,49.95,91,31,8.77,BY,1620790043
Khovd,48.0056,91.6419,54.05,31,9,6.08,MN,1620790043
Lagoa,39.05,-27.9833,60.73,81,9,13.73,PT,1620790043
Naze,28.3667,129.4833,77.0,94,75,19.57,JP,1620790044
Rikitea,-23.1203,-134.9692,77.81,78,27,22.77,PF,1620790044
Castro,-24.7911,-50.0119,59.63,72,99,3.51,BR,1620790044
Ushuaia,-54.8,-68.3,53.6,50,40,9.22,AR,1620789890
Cabo San Lucas,22.8909,-109.9124,79.0,76,74,9.69,MX,1620789926
Bandarbeyla,9.4942,50.8122,81.19,64,100,14.9,SO,1620789916
Roebourne,-20.7833,117.1333,86.27,30,0,11.1,AU,1620790045
Port Alfred,-33.5906,26.891,59.74,86,11,10.85,ZA,1620790045
Narsaq,60.9167,-46.05,41.0,56,75,2.3,GL,1620790046
Puerto Ayora,-0.7393,-90.3518,75.99,94,29,5.01,EC,1620790046
Geraldton,-28.7667,114.6,77.0,65,13,8.05,AU,1620790046
Hamilton,39.1834,-84.5333,50.0,61,1,5.75,US,1620789903
Selma,36.5708,-119.6121,87.8,11,20,10.36,US,1620790047
Mitú,1.1983,-70.1733,71.24,99,100,1.54,CO,1620789804
New Norfolk,-42.7826,147.0587,55.99,70,5,1.01,AU,1620790047
Buenos Aires,-34.6132,-58.3772,52.0,66,0,1.14,AR,1620789978
Yantzaza,-3.8278,-78.7594,64.42,98,14,0.85,EC,1620790047
Jamestown,42.097,-79.2353,39.2,75,40,4.61,US,1620790048
Butaritari,3.0707,172.7902,82.65,74,100,10.56,KI,1620790048
Arraial do Cabo,-22.9661,-42.0278,69.57,82,9,7.56,BR,1620790048
Dikson,73.5069,80.5464,28.09,91,100,18.1,RU,1620790048
Tuktoyaktuk,69.4541,-133.0374,23.0,86,75,18.41,CA,1620790049
Caravelas,-17.7125,-39.2481,70.05,78,2,4.18,BR,1620790049
Half Moon Bay,37.4636,-122.4286,63.0,93,90,8.05,US,1620790049
Sistranda,63.7256,8.834,42.8,93,0,3.44,NO,1620790050
Carnarvon,-24.8667,113.6333,80.6,41,0,11.5,AU,1620790050
Manggar,-2.8833,108.2667,84.34,78,100,12.12,ID,1620790050
Sørland,67.667,12.6934,42.46,91,100,19.62,NO,1620790051
Avarua,-21.2078,-159.775,73.4,94,90,6.91,CK,1620790051
Vaini,-21.2,-175.2,77.0,73,20,11.5,TO,1620790051
Garissa,-0.4536,39.6401,76.82,67,97,13.58,KE,1620790051
Khatanga,71.9667,102.5,32.63,100,100,9.89,RU,1620790052
Kirksville,40.1948,-92.5833,50.0,61,1,5.75,US,1620789992
Tura,25.5198,90.2201,79.12,61,47,4.23,IN,1620790052
Mataura,-46.1927,168.8643,50.0,66,9,1.01,NZ,1620790052
San Andrés,12.5847,-81.7006,82.4,83,75,11.5,CO,1620790053
Vacaria,-28.5122,-50.9339,51.01,99,100,1.01,BR,1620790053
Haines Junction,60.7522,-137.5108,50.0,34,99,10.36,CA,1620790053
Alofi,-19.0595,-169.9187,78.8,78,75,6.91,NU,1620790054
Tuatapere,-46.1333,167.6833,50.0,66,9,1.01,NZ,1620790054
Gobabis,-22.45,18.9667,54.84,46,0,8.52,NA,1620790054
Caiapônia,-16.9567,-51.8103,62.62,54,44,2.55,BR,1620790054
Marsabit,2.3284,37.9899,63.32,87,100,5.82,KE,1620790055
Kīhei,20.785,-156.4656,78.8,57,40,21.85,US,1620790055
Nanortalik,60.1432,-45.2371,39.25,68,98,3.6,GL,1620790055
Listvyagi,53.6772,86.951,57.43,47,100,2.04,RU,1620790056
Ponta do Sol,32.6667,-17.1,57.0,71,40,4.0,PT,1620790056
Iquique,-20.2208,-70.1431,64.4,77,90,2.95,CL,1620790056
Neenah,44.1858,-88.4626,44.6,65,40,4.61,US,1620789882
Baruun-Urt,46.6806,113.2792,52.81,26,4,12.62,MN,1620790057
Hilo,19.7297,-155.09,80.6,57,40,6.91,US,1620789807
Marzuq,14.4,46.4667,77.47,39,90,5.12,YE,1620790057
Klaksvík,62.2266,-6.589,37.4,75,93,6.91,FO,1620790057
Saint-Philippe,-21.3585,55.7679,73.4,73,0,3.44,RE,1620790058
Lorengau,-2.0226,147.2712,77.02,93,100,7.0,PG,1620790058
Batagay,67.6333,134.6333,30.99,61,100,7.34,RU,1620790058
Ilulissat,69.2167,-51.1,30.2,93,90,3.53,GL,1620790059
Iqaluit,63.7506,-68.5145,30.0,86,75,6.91,CA,1620790059
Punta Arenas,-53.15,-70.9167,46.4,71,75,11.5,CL,1620790059
Mount Gambier,-37.8333,140.7667,59.0,58,0,6.91,AU,1620790060
Jiangyou,31.7667,104.7167,76.48,56,46,5.79,CN,1620790060
Yārāda,17.65,83.2667,87.8,62,24,6.91,IN,1620790060
Pangnirtung,66.1451,-65.7125,17.82,90,60,7.16,CA,1620790060
Kathmandu,27.7167,85.3167,66.2,77,75,4.61,NP,1620789789
La Primavera,5.4906,-70.4092,71.92,95,100,3.85,CO,1620790061
Menongue,-14.6585,17.691,51.64,61,0,3.83,AO,1620790061
Bubaque,11.2833,-15.8333,76.77,76,61,11.45,GW,1620790061
Yumen,40.2833,97.2,66.2,16,64,19.22,CN,1620790062
Hermanus,-34.4187,19.2345,59.0,79,11,5.01,ZA,1620790062
Taoudenni,22.6783,-3.9836,89.53,8,0,10.65,ML,1620790062
São Domingos,-13.3983,-46.3183,66.36,63,38,5.06,BR,1620790062
Karratha,-20.7377,116.8463,86.72,30,0,10.45,AU,1620790063
Vila Velha,-20.3297,-40.2925,71.01,88,0,8.23,BR,1620789917
Albany,42.6001,-73.9662,46.99,48,2,10.69,US,1620789927
Bredasdorp,-34.5322,20.0403,55.4,82,7,8.05,ZA,1620790063
Saint George,37.1041,-113.5841,77.0,8,1,10.36,US,1620790064
Vilyuysk,63.7553,121.6247,43.84,38,14,8.57,RU,1620790064
Östersund,63.1792,14.6357,45.0,81,100,2.13,SE,1620790017
Papara,-3.9839,-38.7273,81.0,89,75,8.05,BR,1620790064
Warrnambool,-38.3833,142.4833,60.01,72,2,3.0,AU,1620790064
Bad Freienwalde,52.7873,14.0304,63.0,85,85,1.01,DE,1620790065
Whitehorse,60.7161,-135.0538,52.0,34,40,12.66,CA,1620790065
Bluff,-46.6,168.3333,50.0,66,27,1.01,NZ,1620790065
Tazmalt,36.3868,4.3989,51.93,55,0,0.22,DZ,1620790066
Linares,-35.85,-71.6,48.38,66,14,2.93,CL,1620790033
Kedrovyy,56.1667,91.8167,55.4,44,0,8.95,RU,1620790066
Mahébourg,-20.4081,57.7,68.0,94,20,4.61,MU,1620790066
Portland,45.5234,-122.6762,69.8,30,75,9.22,US,1620789510
Honiara,-9.4333,159.95,84.33,75,79,3.65,SB,1620790067
Cayenne,4.9333,-52.3333,80.01,94,75,10.54,GF,1620790067
Hithadhoo,-0.6,73.0833,82.35,75,98,11.65,MV,1620790067
Terenos,-20.4422,-54.8603,69.8,73,0,10.36,BR,1620790068
Paraíso,9.8383,-83.8656,69.8,100,90,3.44,CR,1620790068
Chunoyar,57.4467,97.3217,47.95,36,2,6.29,RU,1620790068
Warri,5.5167,5.75,76.05,89,47,3.58,NG,1620790069
Singaparna,-7.3515,108.111,80.74,74,81,4.54,ID,1620790069
Kabo,7.6994,18.629,75.02,78,95,4.27,CF,1620790069
Barrow,71.2906,-156.7887,17.6,79,90,13.8,US,1620790070
Medicine Hat,50.0501,-110.6683,52.0,66,75,9.22,CA,1620789929
Cherskiy,68.75,161.3,26.51,80,89,4.83,RU,1620790070
Mar del Plata,-38.0023,-57.5575,50.0,87,0,5.75,AR,1620790070
Yellowknife,62.456,-114.3525,33.01,64,20,8.05,CA,1620790071
George Town,5.4112,100.3354,89.01,74,20,1.14,MY,1620789782
Wewak,-3.5534,143.6268,80.69,82,100,4.72,PG,1620790071
Qui Nhon,13.7667,109.2333,88.34,61,45,10.98,VN,1620789867
Mumbwa,-14.9783,27.0619,53.11,72,0,4.72,ZM,1620790071
Vila Franca do Campo,37.7167,-25.4333,53.6,82,20,2.3,PT,1620790072
Saint Paul Harbor,57.79,-152.4072,42.24,80,100,1.92,US,1620789837
Kamenka,51.3223,42.7678,45.1,83,100,7.43,RU,1620790072
Mubi,10.2676,13.2644,80.06,52,10,5.03,NG,1620790072
Chui,-33.6971,-53.4616,52.48,72,69,7.58,UY,1620790073
Gouré,13.9835,10.2704,80.58,17,43,4.74,NE,1620790073
Ribeira Grande,38.5167,-28.7,61.27,86,12,7.99,PT,1620790073
Waipawa,-41.4122,175.5153,51.01,93,90,24.16,NZ,1620790074
Sitka,57.0531,-135.33,46.4,76,90,3.2,US,1620790074
Kupang,-10.1667,123.5833,87.8,55,40,14.97,ID,1620790074
Aripuanã,-9.1667,-60.6333,75.9,79,86,1.99,BR,1620789852
Qaryat Sulūq,31.6682,20.2521,69.75,22,5,11.07,LY,1620790075
Buala,-8.145,159.5921,84.6,72,62,4.29,SB,1620790075
Livramento,-3.0254,-60.1803,78.8,100,0,2.86,BR,1620790075
Bethel,41.3712,-73.414,48.0,60,100,6.93,US,1620790076
Hammerfest,70.6634,23.6821,35.6,87,75,3.44,NO,1620790076
Kamenice nad Lipou,49.303,15.0752,57.0,93,97,1.01,CZ,1620790076
Salalah,17.0151,54.0924,82.4,83,75,2.3,OM,1620790077
Egvekinot,66.3167,-179.1667,31.21,99,100,4.7,RU,1620790077
Qaanaaq,77.484,-69.3632,20.8,88,100,6.04,GL,1620790077
Waingapu,-9.6567,120.2641,84.99,61,11,14.23,ID,1620790077
Elk Point,42.6833,-96.6836,53.01,44,59,5.59,US,1620790078
Port Keats,-14.25,129.55,90.57,25,0,12.03,AU,1620790078
Diego de Almagro,-26.3667,-70.05,59.5,47,10,1.52,CL,1620790078
Nuevo Ideal,24.8875,-105.0728,66.94,46,81,6.38,MX,1620790079
Grand-Santi,4.25,-54.3833,71.8,99,99,1.81,GF,1620790079
Pevek,69.7008,170.3133,23.76,82,100,0.67,RU,1620790079
Tiznit Province,29.5833,-9.5,59.09,63,2,2.57,MA,1620790080
Saint-Leu,-21.15,55.2833,73.4,73,0,3.44,RE,1620790080
Norman Wells,65.282,-126.8329,55.4,41,75,10.36,CA,1620790080
Katsuura,35.1333,140.3,68.0,55,75,6.91,JP,1620790080
Fortuna,40.5982,-124.1573,55.0,87,1,6.91,US,1620790081
Ilmajoki,62.7333,22.5667,53.01,81,0,2.3,FI,1620790081
Naryan-Mar,67.6713,53.087,45.55,97,100,12.39,RU,1620790082
Gemeente Wageningen,51.9667,5.6667,51.01,100,90,1.14,NL,1620790082
Anadyr,64.75,177.4833,35.6,87,75,22.37,RU,1620790082
San Cristobal,7.7669,-72.225,80.6,61,40,9.22,VE,1620790083
Tarakan,3.3,117.6333,84.2,79,40,2.3,ID,1620790083
Longyearbyen,78.2186,15.6401,21.2,86,75,5.75,SJ,1620790083
Kigoma,-4.8769,29.6267,69.94,80,29,5.06,TZ,1620790083
Olafsvik,64.8945,-23.7142,38.23,62,82,2.35,IS,1620790084
Buchanan,5.8808,-10.0467,75.2,94,75,4.9,LR,1620790084
Vostok,46.4856,135.8833,59.43,37,98,5.39,RU,1620790084
Gillette,44.2911,-105.5022,44.6,70,1,17.27,US,1620790085
Hong Kong,22.2855,114.1577,89.01,79,8,12.28,HK,1620789937
Kodinsk,58.6881,99.1844,45.75,40,33,5.86,RU,1620790085
Chokurdakh,70.6333,147.9167,26.94,83,99,5.37,RU,1620790085
Clyde River,70.4692,-68.5914,19.4,93,90,3.44,CA,1620790086
Walvis Bay,-22.9575,14.5053,64.4,29,0,2.3,NA,1620790086
Tha Bo,17.85,102.5814,93.0,62,40,2.3,TH,1620790086
Ambon City,-3.6954,128.1814,87.8,74,40,4.61,ID,1620790086
Green River,41.5286,-109.4662,42.8,52,1,4.61,US,1620790087
Westport,41.1415,-73.3579,52.0,55,100,9.48,US,1620790087
Craig,40.5153,-107.5464,41.0,81,1,8.05,US,1620790087
Tautira,-17.7333,-149.15,86.0,61,75,6.91,PF,1620790088
Feicheng,35.2606,117.9675,77.94,43,14,3.38,CN,1620790088
Fairbanks,64.8378,-147.7164,55.4,62,90,11.5,US,1620790088
Tamiahua,21.2667,-97.45,79.23,87,63,10.38,MX,1620790089
Kapaa,22.0752,-159.319,78.8,65,40,14.97,US,1620790067
Alice Springs,-23.7,133.8833,66.2,42,0,8.05,AU,1620790089
Lata,40.1629,-8.3327,61.0,92,100,4.0,PT,1620790089
Oshnavīyeh,37.0397,45.0983,53.6,47,0,6.91,IR,1620790089
Snåase,64.2457,12.3778,43.86,93,96,2.06,NO,1620790090
Victoria Falls,-17.9235,25.843,54.12,59,0,4.05,ZW,1620790090
Ahipara,-35.1667,173.1667,66.88,79,91,7.67,NZ,1620790091
Almaznyy,48.0448,40.045,46.4,100,75,11.18,RU,1620790091
Del Rio,29.3627,-100.8968,75.2,69,90,9.22,US,1620790091
Provideniya,64.3833,-173.3,37.4,81,90,4.47,RU,1620790091
Tasiilaq,65.6145,-37.6368,28.4,93,75,17.27,GL,1620790092
Altay,47.8667,88.1167,52.45,44,98,4.59,CN,1620790092
Pisco,-13.7,-76.2167,64.0,88,7,2.3,PE,1620790092
Camaná,-16.6228,-72.7111,65.66,80,99,3.0,PE,1620790093
Sittwe,20.15,92.9,86.88,62,23,3.56,MM,1620790093
Mount Isa,-20.7333,139.5,78.8,25,0,10.36,AU,1620790093
East London,-33.0153,27.9116,55.4,94,0,5.75,ZA,1620790094
Beringovskiy,63.05,179.3167,32.22,99,100,3.53,RU,1620790094
Hasaki,35.7333,140.8333,68.0,49,75,10.36,JP,1620790094
Lagoa Santa,-19.6272,-43.8897,60.8,82,0,5.75,BR,1620790094
Shar,49.5886,81.0453,56.8,48,68,13.85,KZ,1620790095
Touros,-5.1989,-35.4608,73.4,94,0,4.61,BR,1620790095
Cape Town,-33.9258,18.4232,59.0,100,20,3.44,ZA,1620789834
Luanda,-8.8368,13.2343,77.0,94,75,8.05,AO,1620789830
Beyneu,45.3167,55.2,69.15,47,9,20.07,KZ,1620790096
Roald,62.5833,6.1333,43.0,93,90,2.3,NO,1620790096
Hualmay,-11.0964,-77.6139,65.21,84,7,8.46,PE,1620790096
Trelew,-43.249,-65.3051,56.43,31,100,6.24,AR,1620790096
Saskylakh,71.9167,114.0833,27.82,81,100,10.16,RU,1620790097
Jutaí,-5.1833,-68.9,73.13,98,100,2.08,BR,1620790097
Ust'-Barguzin,53.45,108.9833,42.71,70,27,4.59,RU,1620790097
Monchegorsk,67.9397,32.8739,43.0,100,100,2.77,RU,1620790098
Chino Valley,34.7575,-112.4538,70.0,14,1,9.22,US,1620789954
Airai,-8.9266,125.4092,73.67,48,5,4.65,TL,1620790098
Usinsk,65.9939,57.5281,44.24,94,100,15.17,RU,1620790098
Wenling,28.3669,121.36,84.0,85,85,3.44,CN,1620790099
Nantucket,41.2835,-70.0995,52.0,76,90,12.66,US,1620790099
Dodge City,37.7528,-100.0171,48.99,87,90,4.61,US,1620790099
Heraclea,37.5133,34.0467,52.83,33,0,2.17,TR,1620790100
Laas,46.6166,10.7002,46.0,100,75,8.05,IT,1620790100
Birao,10.2849,22.7882,80.2,52,32,3.65,CF,1620790100
Port Blair,11.6667,92.75,86.22,68,99,4.25,IN,1620790100
Kavaratti,10.5669,72.642,84.38,72,100,3.06,IN,1620790101
Şurmān,32.7567,12.5716,65.41,82,40,14.09,LY,1620790101
Flinders,-34.5833,150.8552,66.0,72,90,8.52,AU,1620790101
Dinagat,9.9561,125.5933,82.31,79,95,10.96,PH,1620790102
Tanout,14.9709,8.8879,85.03,11,100,9.17,NE,1620790102
Dingle,10.9995,122.6711,88.83,60,97,12.37,PH,1620790102
Morehead,37.2711,-87.1764,57.2,41,90,8.05,US,1620790103
Padang,-0.9492,100.3543,77.0,100,75,3.44,ID,1620790103
Ürümqi,43.801,87.6005,66.2,42,0,4.47,CN,1620790103
Tymovskoye,50.8456,142.655,55.69,30,0,5.75,RU,1620790104
Petatlán,17.5167,-101.2667,81.84,77,44,2.04,MX,1620790104
Angoche,-16.2325,39.9086,70.52,89,91,8.37,MZ,1620790104
Polovinnoye,54.7914,65.9864,63.27,35,29,9.04,RU,1620790105
Derzhavīnsk,51.1,66.3167,59.56,45,93,5.61,KZ,1620790105
Diffa,13.3154,12.6113,85.57,31,8,6.67,NE,1620790105
Bengkulu,-3.8004,102.2655,84.34,72,85,2.3,ID,1620790105
Sirte,31.2089,16.5887,69.06,63,0,8.84,LY,1620790106
Nikolskoye,59.7035,30.7861,57.0,50,0,4.47,RU,1620790106
Kloulklubed,7.0419,134.2556,80.6,89,90,8.05,PW,1620790106
Tando Muhammad Khan,25.123,68.5358,86.65,57,3,21.12,PK,1620790107
Baoqing,46.3317,132.2111,52.41,71,100,16.71,CN,1620790107
Dunedin,-45.8742,170.5036,54.0,36,34,1.01,NZ,1620790107
Gornopravdinsk,60.05,69.9,49.35,60,100,9.24,RU,1620790108
Vanimo,-2.6741,141.3028,85.28,68,75,6.06,PG,1620790108
Kaitangata,-46.2817,169.8464,50.0,66,45,2.57,NZ,1620790108
Cuamba,-14.8031,36.5372,57.06,98,14,3.13,MZ,1620790109
Vardø,70.3705,31.1107,37.4,93,75,2.3,NO,1620790109
Dīr,35.2058,71.8756,67.87,46,2,2.04,PK,1620790109
Strezhevoy,60.7333,77.5889,50.0,87,75,8.95,RU,1620790109
Tiksi,71.6872,128.8694,24.94,83,66,4.72,RU,1620790110
Najrān,17.4924,44.1277,77.0,38,0,5.66,SA,1620790110
Nelson Bay,-32.7167,152.15,68.0,77,75,4.61,AU,1620790110
Correntina,-13.3433,-44.6367,64.67,57,26,2.84,BR,1620790111
Hohhot,40.8106,111.6522,69.8,21,0,6.71,CN,1620790111
Madisonville,37.3281,-87.4989,57.99,41,90,8.05,US,1620790111
Port Hardy,50.6996,-127.4199,50.0,100,90,4.61,CA,1620790111
Shihezi,44.3,86.0333,67.82,48,47,8.12,CN,1620789986
Kruisfontein,-34.0033,24.7314,53.01,95,0,8.79,ZA,1620790112
Yatou,37.15,122.3833,60.82,85,100,7.49,CN,1620790112
Boyolangu,-8.1181,111.8935,83.88,70,60,10.09,ID,1620789985
Husavik,66.0449,-17.3389,24.8,80,0,3.44,IS,1620790113
Virginia Beach,36.8529,-75.978,57.0,67,20,9.17,US,1620789835
Abu Dhabi,24.4667,54.3667,80.6,78,0,2.3,AE,1620790113
Ketchikan,55.3422,-131.6461,48.06,89,99,2.26,US,1620789897
Korla,41.7597,86.1469,62.89,45,98,20.62,CN,1620790113
Grand Gaube,-20.0064,57.6608,75.0,75,1,3.0,MU,1620790114
Batemans Bay,-35.7167,150.1833,68.0,64,30,4.09,AU,1620790114
Bathsheba,13.2167,-59.5167,78.8,65,75,23.02,BB,1620790114
Kon Tum,14.35,108.0,91.31,46,72,4.16,VN,1620790115
Merauke,-8.4667,140.3333,84.42,69,58,4.14,ID,1620790115
Laguna,38.421,-121.4238,89.6,7,1,4.61,US,1620790115
Leningradskiy,69.3833,178.4167,31.48,92,100,10.11,RU,1620790115
Nemuro,43.3236,145.575,51.8,62,20,11.5,JP,1620790116
Adrar,20.5022,-10.0711,80.53,11,0,11.41,MR,1620790116
Corinth,37.9407,22.9573,57.99,58,0,1.19,GR,1620790116
Bougouni,11.417,-7.479,82.17,55,94,5.79,ML,1620790117
São Filipe,14.8961,-24.4956,74.39,74,1,11.39,CV,1620790117
Warnes,-17.5,-63.1667,63.73,71,100,12.17,BO,1620790117
Krasnosel'kup,65.7,82.4667,34.02,97,100,14.27,RU,1620790118
Port Moresby,-9.4431,147.1797,89.6,70,40,11.5,PG,1620789888
Yulara,-25.2406,130.9889,68.0,42,0,5.75,AU,1620790118
Harlingen,26.1906,-97.6961,82.99,89,75,13.8,US,1620790080
Kutum,14.2,24.6667,73.99,41,6,5.06,SD,1620789909
Oddur,4.1213,43.8894,72.27,64,100,16.96,SO,1620789915
College,64.8569,-147.8028,55.4,62,75,6.91,US,1620790119
Shestakovo,56.4915,103.96,41.79,47,70,8.68,RU,1620790119
Doha,25.2867,51.5333,87.8,42,0,2.3,QA,1620790119
Severo-Kuril'sk,50.6789,156.125,37.09,87,63,12.08,RU,1620790120
Souillac,-20.5167,57.5167,68.0,94,20,4.61,MU,1620790120
Dubai,25.2582,55.3047,80.6,69,35,3.44,AE,1620789853
Eureka,40.8021,-124.1637,55.0,88,11,2.59,US,1620790120
Poso,-1.3959,120.7524,88.3,54,42,4.23,ID,1620790120
Jequié,-13.8575,-40.0836,61.27,97,1,1.3,BR,1620790121
Shingū,33.7333,135.9833,66.2,82,75,5.75,JP,1620790121
Qaqortoq,60.7167,-46.0333,41.0,56,75,2.3,GL,1620790121
Torbay,47.6666,-52.7314,42.01,87,90,11.5,CA,1620790122
Mayor Pablo Lagerenza,-19.9309,-60.7718,59.94,85,100,8.59,PY,1620790122
Dosso,13.049,3.1937,88.54,27,78,9.04,NE,1620790122
Samarai,-10.6167,150.6667,82.72,76,17,7.92,PG,1620790122
Lebu,-37.6167,-73.65,49.98,82,60,9.46,CL,1620790123
Mildura,-34.2,142.15,66.2,45,0,2.3,AU,1620790123
Broken Hill,-31.95,141.4333,60.8,51,0,6.91,AU,1620790123
Tromsø,69.6496,18.957,37.4,75,75,6.91,NO,1620790124
Churapcha,62.0025,132.4325,46.44,71,100,6.96,RU,1620790124
Guerrero Negro,27.9769,-114.0611,59.79,78,0,13.02,MX,1620790124
Jalu,29.0331,21.5482,75.72,18,0,8.28,LY,1620790124
Atuona,-9.8,-139.0333,80.11,81,16,25.08,PF,1620790125
Jiwani,25.05,61.7417,84.02,68,0,9.69,PK,1620790125
Lingao,19.9103,109.6859,87.37,57,15,0.69,CN,1620790125
Arrondissement du Havre,49.5833,0.3333,48.2,87,0,10.36,FR,1620790126
Chililabombwe,-12.3648,27.8229,50.56,86,0,4.85,ZM,1620790126
Mahon,39.8885,4.2658,55.4,82,0,5.75,ES,1620790126
San Patricio,28.017,-97.5169,84.2,89,90,11.5,US,1620790126
Port Victoria,0.0939,33.9756,66.02,91,100,6.46,KE,1620790127
Srīvardhan,18.0333,73.0167,85.3,68,51,6.38,IN,1620790127
Iralaya,15.0,-83.2333,81.3,83,19,15.32,HN,1620790127
Benghazi,32.1167,20.0667,70.81,37,6,7.36,LY,1620790128
Deputatsky,69.3,139.9,21.02,84,100,5.01,RU,1620790128
San Fernando del Valle de Catamarca,-28.4696,-65.7852,55.0,87,3,7.9,AR,1620790128
Saint Anthony,45.0205,-93.218,54.0,43,1,6.24,US,1620790129
Itoman,26.1247,127.6694,84.0,83,40,17.27,JP,1620790129
São Gabriel da Cachoeira,-0.1303,-67.0892,71.78,99,100,1.77,BR,1620790129
Kaberamaido,1.7389,33.1594,65.64,92,100,1.61,UG,1620790129
Adré,13.4667,22.2,78.28,35,42,4.99,TD,1620790130
Isangel,-19.55,169.2667,80.24,71,96,15.05,VU,1620790130
Ponta Delgada,37.7333,-25.6667,53.6,82,20,2.3,PT,1620790130
Vila do Maio,15.1333,-23.2167,73.4,64,20,14.97,CV,1620790131
Verāval,20.9,70.3667,84.42,68,4,8.95,IN,1620790131
San Juan,-31.5375,-68.5364,57.87,47,0,5.59,AR,1620789982
Xining,36.6167,101.7667,68.0,40,0,1.97,CN,1620790131
Lieksa,63.3167,30.0167,48.29,89,35,8.25,FI,1620790132
Ouallam,14.3188,2.0866,90.25,22,55,7.7,NE,1620790132
Mvuma,-19.2792,30.5283,47.75,92,0,6.49,ZW,1620790132
Kamsack,51.5667,-101.9009,59.0,21,1,6.91,CA,1620790132
Wagar,16.1525,36.2032,85.64,46,89,9.71,SD,1620790133
San Quintín,30.4833,-115.95,59.58,77,0,6.96,MX,1620790133
Aklavik,68.2191,-135.0107,39.2,60,100,10.36,CA,1620790133
Posadas,-27.3671,-55.8961,55.4,82,0,12.66,AR,1620790134
Champerico,14.3,-91.9167,73.99,95,8,7.76,GT,1620790134
Roseburg,43.2165,-123.3417,71.6,15,1,6.91,US,1620790134
Bartica,6.4,-58.6167,75.2,100,40,4.61,GY,1620790134
Kiunga,-6.1219,141.2906,89.44,59,67,1.14,PG,1620790135
Fallon,39.4735,-118.7774,66.2,9,40,5.75,US,1620790135
Bida,9.0833,6.0167,79.57,75,0,4.7,NG,1620790135
Richards Bay,-28.783,32.0377,63.75,54,0,6.55,ZA,1620790136
Port Lincoln,-34.7333,135.8667,61.57,52,12,7.14,AU,1620790136
Dano,11.15,-3.0667,84.56,46,81,6.06,BF,1620790136
Berzasca,44.6476,21.9526,52.0,44,4,7.34,RO,1620790136
Manadhoo,5.7667,73.3833,77.25,94,100,12.26,MV,1620790137
Abalak,58.1286,68.5944,54.75,57,100,10.42,RU,1620790137
Sibolga,1.7427,98.7792,85.77,69,86,3.74,ID,1620790137
Patea,-39.7583,174.4833,53.01,93,100,7.0,NZ,1620790138
Santa Fe,-31.6333,-60.7,52.0,65,0,1.03,AR,1620789990
Boundiali,9.5217,-6.4869,73.4,83,65,3.8,CI,1620790138
Boralday,43.3578,76.8594,55.4,82,90,4.47,KZ,1620790138
Inhambane,-23.865,35.3833,60.8,94,0,2.01,MZ,1620790007
Faanui,-16.4833,-151.75,81.63,75,25,19.75,PF,1620790139
Srandakan,-7.9386,110.2506,85.98,66,79,11.21,ID,1620790139
Esperance,-33.8667,121.9,68.0,73,90,14.97,AU,1620790140
Bulungu,-4.55,18.6,68.92,80,0,2.84,CD,1620790140
Nau,40.1525,69.3686,71.6,46,0,6.71,TJ,1620790140
Atar,20.5169,-13.0499,82.13,13,0,11.88,MR,1620790140
Beloha,-25.1667,45.05,61.32,94,0,4.88,MG,1620790141
Sinnamary,5.3833,-52.95,77.86,84,99,10.22,GF,1620790141
Mokhsogollokh,61.4681,128.9203,44.28,74,100,4.07,RU,1620790141
Teluk Nibung,3.001,99.8164,78.03,91,100,3.8,ID,1620790142
Mangan,27.5167,88.5333,71.51,71,98,3.47,IN,1620790142
Ormara,25.2088,64.6357,84.07,68,4,12.62,PK,1620789864
Mosquera,4.7059,-74.2302,55.4,100,40,6.91,CO,1620790142
Bambous Virieux,-20.3428,57.7575,75.0,94,20,4.61,MU,1620790143
Constitución,-35.3333,-72.4167,54.27,57,40,5.95,CL,1620790143
St. George's,12.0564,-61.7485,78.8,78,20,13.8,GD,1620790143
Nipawin,53.3668,-104.0009,59.0,26,1,5.75,CA,1620790143
Gigmoto,13.7796,124.39,85.59,72,35,9.24,PH,1620790144
Grindavik,63.8424,-22.4338,37.4,87,40,1.14,IS,1620790144
Ankola,14.6667,74.3,85.41,71,100,1.23,IN,1620790144
Ust-Tsilma,65.441,52.1498,54.05,82,100,8.66,RU,1620790145
Cururupu,-1.8283,-44.8683,73.09,96,19,2.53,BR,1620790145
Alamogordo,32.8995,-105.9603,77.0,13,1,11.5,US,1620790145
Kavieng,-2.5744,150.7967,81.18,79,92,9.26,PG,1620790146
Nola,40.922,14.5329,60.8,77,40,2.3,IT,1620790146
Constantine,36.365,6.6147,48.2,81,0,2.3,DZ,1620790146
Riviere-au-Renard,48.9957,-64.3971,35.6,80,40,5.75,CA,1620790147
Canutama,-6.5339,-64.3831,72.82,98,99,2.42,BR,1620790147
Tiarei,-17.5333,-149.3333,86.0,61,75,6.91,PF,1620790147
Salinas,36.6777,-121.6555,55.4,82,90,13.8,US,1620790147
Aldan,58.6031,125.3894,37.13,91,100,6.55,RU,1620790148
Finschhafen,-6.6024,147.8681,83.16,75,95,7.52,PG,1620790148
São João da Barra,-21.6403,-41.0511,69.04,81,5,11.41,BR,1620790148
Esim,4.8699,-2.2405,78.73,81,7,6.35,GH,1620790149
Guasave,25.5667,-108.45,81.0,69,11,9.31,MX,1620790149
Makakilo City,21.3469,-158.0858,82.4,51,90,9.22,US,1620790149
Parrita,9.5201,-84.3225,69.8,100,90,3.44,CR,1620789980
Yuancheng,36.652,107.7896,71.35,44,11,15.08,CN,1620790149
Treviglio,45.5238,9.5895,54.0,100,75,1.14,IT,1620790150
Gbarnga,6.9956,-9.4722,72.05,99,47,1.52,LR,1620790150
Andenes,69.3143,16.1194,41.0,87,90,10.36,NO,1620790150
Longhua,23.6137,114.1919,90.63,56,56,7.43,CN,1620790151
Ust'-Karsk,52.7011,118.8077,43.2,91,100,8.48,RU,1620790151
Prievidza,48.7745,18.6275,59.0,100,2,4.12,SK,1620790151
Thompson,55.7435,-97.8558,55.4,35,20,6.91,CA,1620790152
Pedernales,18.0384,-71.744,79.79,71,100,9.4,DO,1620790152
Broome,42.2506,-75.833,39.99,65,20,9.22,US,1620790152
Porto-Novo,6.4965,2.6036,82.4,78,40,13.8,BJ,1620789924
Eilat,29.5581,34.9482,77.0,36,0,13.8,IL,1620790153
Kolokani,13.5728,-8.0339,87.85,34,92,1.9,ML,1620790153
Acarí,-15.4311,-74.6158,68.97,74,90,2.75,PE,1620790153
Bloomingdale,27.8936,-82.2404,80.01,78,75,5.82,US,1620790153
Marga,45.5,22.5167,51.78,57,0,5.48,RO,1620790154
Monterey,36.2505,-121.2516,64.99,82,90,13.8,US,1620789902
Asău,46.4333,26.4,46.99,54,1,3.06,RO,1620790154
Departamento de Maldonado,-34.6667,-54.9167,57.99,76,75,6.91,UY,1620790154
Safaga,26.7292,33.9365,77.0,38,0,8.05,EG,1620790155
Marsh Harbour,26.5412,-77.0636,77.97,85,0,12.24,BS,1620790155
Herat Province,34.5,62.0,71.6,35,0,5.75,AF,1620790155
Kirakira,-10.4544,161.9205,84.0,72,78,5.84,SB,1620789909
Ustrzyki Dolne,49.4304,22.5938,52.0,62,0,3.31,PL,1620790156
Moratuwa,6.773,79.8816,82.4,83,20,5.75,LK,1620790156
Athabasca,54.7169,-113.2854,46.4,81,83,2.3,CA,1620790156
Spokane,47.6166,-117.3677,64.4,34,1,4.45,US,1620790084
Siparia,10.1333,-61.5,77.0,91,9,8.21,TT,1620790156
Dāmghān,36.1683,54.348,70.81,50,98,1.14,IR,1620790102
Poum,-20.2333,164.0167,79.65,76,100,15.26,NC,1620790157
Oktyabr'skoye,43.0645,44.7417,44.6,87,0,4.47,RU,1620790157
La Ciotat,43.1748,5.6045,55.99,75,16,5.01,FR,1620790157
Dudinka,69.4058,86.1778,32.27,99,100,2.8,RU,1620790037
Desaguadero,-16.5656,-69.0417,43.23,79,20,4.07,PE,1620790158
Cockburn Town,21.4612,-71.1419,79.18,85,33,21.97,TC,1620789890
El Tigre,8.8875,-64.2454,76.24,74,27,12.46,VE,1620790158
Bonnyville,54.2668,-110.735,53.6,54,75,8.05,CA,1620790158
Kurisove,46.9695,30.9591,53.6,87,20,6.71,UA,1620790159
Shubarkuduk,49.1447,56.4872,60.53,45,74,14.76,KZ,1620790159
Santa Barbara,34.7333,-120.0343,60.01,72,1,4.61,US,1620790159
Bilma,18.6853,12.9164,88.59,11,1,1.7,NE,1620790160
Meulaboh,4.1363,96.1285,81.14,79,94,2.44,ID,1620790160
Abu Kamal,34.4506,40.9171,76.89,30,97,7.16,SY,1620790160
Sijunjung,-0.6876,100.9537,77.54,92,99,0.43,ID,1620790160
Palu,-0.8917,119.8707,91.89,51,71,1.9,ID,1620790161
Russell,32.3502,-85.1999,68.0,94,90,3.74,US,1620790161
Clovis,36.8252,-119.7029,87.8,11,20,10.36,US,1620790161
Vao,-22.6667,167.4833,74.89,77,99,19.24,NC,1620790162
Ginda,30.6945,78.4932,66.94,52,84,2.53,IN,1620790162
The Pas,53.8251,-101.2541,55.4,41,1,10.36,CA,1620790162
Mocorito,25.4833,-107.9167,81.0,64,13,1.99,MX,1620790162
Namie,37.4833,141.0,62.01,51,100,1.01,JP,1620790163
Umluj,25.0213,37.2685,79.52,59,15,3.85,SA,1620790163
Ilhabela,-23.7781,-45.3581,67.28,87,40,3.42,BR,1620790163
Shelburne,44.0787,-80.2041,39.99,84,100,1.01,CA,1620790164
Zhigansk,66.7697,123.3711,33.98,61,7,12.55,RU,1620790164
Chu,43.5983,73.7614,66.16,49,33,4.88,KZ,1620790164
Gubkinskiy,64.434,76.5026,42.28,49,56,17.2,RU,1620790164
Carutapera,-1.195,-46.02,73.99,94,38,5.06,BR,1620790165
Boca do Acre,-8.7522,-67.3978,72.05,97,65,2.15,BR,1620790165
Radviliškis,55.8167,23.5333,48.2,61,0,9.22,LT,1620790165
Piaçabuçu,-10.4056,-36.4344,74.66,87,75,7.47,BR,1620790166
Mareeba,-17.0,145.4333,87.8,55,100,10.36,AU,1620790166
Hecun,36.5333,114.1111,80.24,25,10,7.05,CN,1620790166
Talnakh,69.4865,88.3972,33.66,100,100,2.68,RU,1620790167
Stornoway,58.2093,-6.3865,46.4,93,90,14.97,GB,1620790167
Bundaberg,-24.85,152.35,82.4,57,30,3.44,AU,1620790167
Te Anau,-45.4167,167.7167,46.33,58,1,2.62,NZ,1620790167
Saldanha,-33.0117,17.9442,48.2,93,0,5.75,ZA,1620790168
Oktyabr'skiy,54.4815,53.471,64.83,61,97,1.99,RU,1620790168
Namatanai,-3.6667,152.4333,84.88,67,65,5.01,PG,1620790168
Talgar,43.3027,77.2395,55.4,82,90,4.47,KZ,1620790169
São Benedito do Rio Preto,-3.3336,-43.5283,73.02,97,96,2.19,BR,1620790169
Parambu,-6.2111,-40.6944,69.75,79,87,5.26,BR,1620790169
Takoradze,4.8845,-1.7554,78.87,80,1,6.98,GH,1620790170
Kasulu,-4.5767,30.1025,60.35,91,64,1.74,TZ,1620790170
Fukuechō,32.6881,128.8419,64.4,100,75,8.05,JP,1620790170
Miles City,46.4083,-105.8406,51.8,62,1,11.5,US,1620790051
Along,28.1667,94.7667,67.77,86,100,0.94,IN,1620790171
Vestmannaeyjar,63.4427,-20.2734,40.57,60,21,3.91,IS,1620790171
Arlit,18.7369,7.3853,86.05,9,0,5.39,NE,1620790171
Manoel Urbano,-8.8389,-69.2597,71.29,99,72,1.14,BR,1620790171
Erzin,36.9559,36.2,64.0,76,6,2.53,TR,1620790172
Neiafu,-18.65,-173.9833,78.8,73,75,9.22,TO,1620790172
Luza,60.6308,47.2512,54.55,73,58,4.29,RU,1620790172
Chumikan,54.7183,135.315,38.7,81,6,8.25,RU,1620790173
Zyryanka,65.75,150.85,33.46,69,100,3.13,RU,1620790173
Huadian,42.9633,126.7478,52.39,89,100,5.91,CN,1620790173
Youghal,51.95,-7.8506,46.0,100,100,7.0,IE,1620790173
Shahr-e Bābak,30.1165,55.1186,66.83,31,6,4.29,IR,1620790174
Acapulco de Juárez,16.8634,-99.8901,84.2,74,40,4.61,MX,1620789905
Kawalu,-7.3817,108.2082,81.12,76,77,4.52,ID,1620790174
Auki,-8.7676,160.7034,84.54,68,54,2.04,SB,1620790174
Morant Bay,17.8815,-76.4093,84.2,61,20,21.85,JM,1620790175
Santa Catalina,9.3337,122.8637,87.8,70,20,9.22,PH,1620790175
Ludvika,60.1496,15.1878,48.99,93,20,3.44,SE,1620790175
Norrtälje,59.758,18.705,53.01,76,0,6.91,SE,1620789994
Ancud,-41.8697,-73.8203,50.0,93,90,3.44,CL,1620790176
Muzhi,65.3667,64.6667,47.16,64,62,1.79,RU,1620790176
Sakaiminato,35.55,133.2333,66.2,63,75,11.5,JP,1620790176
Kiryat Gat,31.61,34.7642,63.0,69,0,0.78,IL,1620790022
Prince Rupert,54.3161,-130.3201,51.8,71,90,5.75,CA,1620790177
Yeppoon,-23.1333,150.7333,86.0,51,16,8.05,AU,1620790177
Heihe,50.2441,127.4902,55.4,71,75,24.61,CN,1620790177
Pangody,65.85,74.4859,38.61,76,21,6.55,RU,1620790178
Pacific Grove,36.6177,-121.9166,55.4,76,1,4.61,US,1620790023
Tsabong,-26.0217,22.401,61.72,34,0,6.02,BW,1620790178
Tessalit,20.1986,1.0114,86.65,12,27,9.35,ML,1620790178
Marawi,7.9986,124.2928,93.0,62,32,2.8,PH,1620790179
Kevsala,45.7983,42.6903,46.06,89,66,4.23,RU,1620790179
Kisaran,2.9845,99.6158,76.05,97,100,2.75,ID,1620790179
Manacapuru,-3.2997,-60.6206,75.2,100,0,3.2,BR,1620790179
Conde,-7.2597,-34.9075,73.4,100,75,8.05,BR,1620790180
Khani,41.9563,42.9566,46.4,93,0,2.3,GE,1620790180
Bethanien,-26.502,17.1583,61.05,25,0,4.47,NA,1620790180
Varāmīn,35.3242,51.6457,69.8,55,0,6.91,IR,1620790181
Moussoro,13.6408,16.4901,86.79,26,56,6.53,TD,1620790181
Faya,18.3851,42.4509,66.2,48,20,2.91,SA,1620790181
Northam,51.0333,-4.2167,46.0,94,43,3.0,GB,1620790181
Bilibino,68.0546,166.4372,30.58,75,92,1.83,RU,1620790182
Lazarev,52.225,141.5131,34.05,84,18,17.63,RU,1620790182
Eenhana,-17.4667,16.3333,55.4,67,0,3.44,NA,1620790182
Hulan Ergi,47.2042,123.6333,59.16,43,92,24.54,CN,1620790183
High Level,58.5169,-117.136,55.4,47,20,8.05,CA,1620790183
Cidreira,-30.1811,-50.2056,56.71,73,89,7.31,BR,1620790183
Havre-St-Pierre,50.2334,-63.5986,39.2,81,75,6.91,CA,1620790184
Shahdad Kot,27.8477,67.9055,96.46,16,0,4.7,PK,1620790184
Margate,51.3813,1.3862,48.99,75,8,4.0,GB,1620790184
Hengyang,26.8881,112.615,71.2,93,100,4.56,CN,1620790185
Maniitsoq,65.4167,-52.9,32.7,81,25,4.41,GL,1620790185
Vostochnyy,55.8167,37.8667,55.0,82,0,4.47,RU,1620790185
Vanavara,60.34,102.2797,40.35,44,70,7.02,RU,1620790185
Conakry,9.538,-13.6773,75.2,94,40,6.91,GN,1620790186
Farīdpur,23.6,89.8333,82.4,61,8,6.42,BD,1620790186
Smithers,54.7804,-127.1743,57.2,41,75,12.66,CA,1620790186
Médéa,36.2642,2.7539,48.2,93,0,2.3,DZ,1620790187
Batagay-Alyta,67.8006,130.4114,22.73,71,88,5.06,RU,1620790187
Vanderhoof,54.0166,-124.0198,56.35,51,100,0.98,CA,1620790187
Halifax,44.6453,-63.5724,45.0,93,83,8.05,CA,1620789917
Takaka,-40.85,172.8,50.0,84,100,5.99,NZ,1620790188
Antofagasta,-23.65,-70.4,57.2,94,40,9.22,CL,1620790124
Lodja,-3.4833,23.4333,67.15,91,14,0.72,CD,1620790188
Huarmey,-10.0681,-78.1522,67.19,81,4,9.51,PE,1620790188
Khasan,42.4308,130.6434,52.88,75,96,12.03,RU,1620790189
Bayan,46.0833,127.4,66.85,34,51,23.15,CN,1620790189
Vaitape,-16.5167,-151.75,81.66,75,25,19.8,PF,1620790189
Mandalgovi,45.7625,106.2708,45.54,36,100,10.18,MN,1620790190
Kumul,42.8,93.45,72.19,33,100,9.89,CN,1620790190
Dandong,40.1292,124.3947,55.08,78,100,4.83,CN,1620790190
Necochea,-38.5473,-58.7368,46.56,55,0,9.62,AR,1620789980
Ambilobe,-13.2,49.05,68.43,94,68,3.04,MG,1620790191
Barra do Garças,-15.89,-52.2567,67.39,61,49,1.57,BR,1620790191
Kalemie,-5.9475,29.1947,67.1,81,12,1.54,CD,1620790191
Sagua de Tánamo,20.5819,-75.2414,72.39,93,40,4.21,CU,1620790191
Bintulu,3.1667,113.0333,89.6,70,40,2.3,MY,1620790192
Dutse,11.7594,9.3392,81.64,45,57,9.51,NG,1620790192
São Raimundo das Mangabeiras,-7.0219,-45.4811,73.31,76,4,2.53,BR,1620790192
Mandera,3.9366,41.867,78.13,59,100,14.94,KE,1620790193
Uyskoye,54.3775,60.0047,60.93,39,3,3.67,RU,1620790193
Cairns,-16.9167,145.7667,87.8,55,88,10.36,AU,1620789915
Imbituba,-28.24,-48.6703,59.0,88,90,11.5,BR,1620790193
Emba,48.8264,58.1442,60.4,43,69,15.23,KZ,1620790194
Tabora,-5.0167,32.8,68.0,94,75,3.2,TZ,1620790194
Birjand,32.8663,59.2211,64.4,22,0,11.5,IR,1620790194
Teahupoo,-17.8333,-149.2667,86.0,61,75,6.91,PF,1620790194
Mezen',65.8522,44.24,55.62,80,99,10.31,RU,1620790195
Christchurch,-43.5333,172.6333,48.99,76,75,6.91,NZ,1620790195
Lüderitz,-26.6481,15.1594,68.02,42,0,7.4,NA,1620790195
Goshāinganj,26.5833,82.3833,86.79,51,34,15.5,IN,1620790196
Tucumã,-0.1833,-50.05,74.77,94,99,3.4,BR,1620790196
Mtwara,-10.2667,40.1833,69.8,94,20,13.8,TZ,1620790196
Kwang Binh,17.4833,106.6,92.57,53,5,2.17,VN,1620790197
Māndal,25.45,74.5667,89.33,33,60,12.66,IN,1620790197
Shenkursk,62.1091,42.896,56.59,77,94,7.0,RU,1620790197
Preeceville,51.95,-102.6677,56.53,33,49,4.12,CA,1620790197
Haileybury,47.449,-79.6373,46.4,53,1,11.5,CA,1620790198
Saint-Joseph,-21.3667,55.6167,69.8,73,0,3.44,RE,1620790198
Bud,39.447,-86.1758,48.0,73,100,9.24,US,1620790198
Vestmanna,62.1564,-7.1664,37.4,75,90,6.91,FO,1620790199
Rogers,36.3668,-95.5836,55.0,76,90,10.85,US,1620790199
Avaré,-23.0986,-48.9258,58.33,73,62,5.37,BR,1620790199
Shishou,29.7226,112.419,75.96,66,100,3.15,CN,1620790199
Montecristi,-1.05,-80.6667,73.4,83,20,2.3,EC,1620790200
Campbellsville,37.3434,-85.3419,55.99,54,75,8.05,US,1620790089
Shache,38.4167,77.2406,72.39,24,100,20.69,CN,1620790200
Gwadar,25.1216,62.3254,84.47,63,0,8.19,PK,1620790200
Mayumba,-3.432,10.6554,77.16,90,100,3.31,GA,1620790201
Pochutla,15.7432,-96.4661,82.0,77,47,5.01,MX,1620790201
